{
"type": "FeatureCollection",
"name": "Riverdale_Stations_17",
"crs": { "type": "name", "properties": { "name": "urn:ogc:def:crs:OGC:1.3:CRS84" } },
"features": [
{ "type": "Feature", "properties": { "map_id": "4a8e949", "map_name": "Fixed-Guideway Lines \/ Projects", "stop_id": "5004", "stop_name": "AIRPORT GATEWAY BRT STATION NB", "lines": "CLAYBRT1 Clayton Southlake BRT (Outbound)" }, "geometry": { "type": "Point", "coordinates": [ -84.4541284896885, 33.642971689954202 ] } },
{ "type": "Feature", "properties": { "map_id": "4a8e949", "map_name": "Fixed-Guideway Lines \/ Projects", "stop_id": "5002", "stop_name": "COLLEGE PARK STATION BRT STATION NB", "lines": "CLAYBRT1 Clayton Southlake BRT (Outbound)" }, "geometry": { "type": "Point", "coordinates": [ -84.449505674619502, 33.651698050989999 ] } },
{ "type": "Feature", "properties": { "map_id": "4a8e949", "map_name": "Fixed-Guideway Lines \/ Projects", "stop_id": "5020", "stop_name": "GARDEN SPRINGS BRT STATION WB", "lines": "CLAYBRT1 Clayton Southlake BRT (Outbound)" }, "geometry": { "type": "Point", "coordinates": [ -84.4190288141547, 33.596238958991798 ] } },
{ "type": "Feature", "properties": { "map_id": "4a8e949", "map_name": "Fixed-Guideway Lines \/ Projects", "stop_id": "5012", "stop_name": "GODBY RD @ W FAYETTEVILLE RD BRT STATION WB", "lines": "CLAYBRT1 Clayton Southlake BRT (Outbound)" }, "geometry": { "type": "Point", "coordinates": [ -84.449244944292502, 33.613727445116503 ] } },
{ "type": "Feature", "properties": { "map_id": "4a8e949", "map_name": "Fixed-Guideway Lines \/ Projects", "stop_id": "5042", "stop_name": "MOUNT ZION RD @ KING WILLIAM DR BRT STATION WB", "lines": "CLAYBRT1 Clayton Southlake BRT (Outbound)" }, "geometry": { "type": "Point", "coordinates": [ -84.360871785416805, 33.572676930146798 ] } },
{ "type": "Feature", "properties": { "map_id": "4a8e949", "map_name": "Fixed-Guideway Lines \/ Projects", "stop_id": "5008", "stop_name": "OLD NATIONAL HWY @ GODBY RD BRT STATION NB", "lines": "CLAYBRT1 Clayton Southlake BRT (Outbound)" }, "geometry": { "type": "Point", "coordinates": [ -84.472688298414994, 33.616622134166199 ] } },
{ "type": "Feature", "properties": { "map_id": "4a8e949", "map_name": "Fixed-Guideway Lines \/ Projects", "stop_id": "5006", "stop_name": "OLD NATIONAL HWY @ SULLIVAN RD BRT STATION NB", "lines": "CLAYBRT1 Clayton Southlake BRT (Outbound)" }, "geometry": { "type": "Point", "coordinates": [ -84.474159682379806, 33.624706094037798 ] } },
{ "type": "Feature", "properties": { "map_id": "4a8e949", "map_name": "Fixed-Guideway Lines \/ Projects", "stop_id": "5032", "stop_name": "RIVERDALE PARK-AND-RIDE BRT STATION WB", "lines": "CLAYBRT1 Clayton Southlake BRT (Outbound)" }, "geometry": { "type": "Point", "coordinates": [ -84.404150646214006, 33.568003556837297 ] } },
{ "type": "Feature", "properties": { "map_id": "4a8e949", "map_name": "Fixed-Guideway Lines \/ Projects", "stop_id": "5016", "stop_name": "RIVERDALE RD @ NORMAN DR BRT STATION NB", "lines": "CLAYBRT1 Clayton Southlake BRT (Outbound)" }, "geometry": { "type": "Point", "coordinates": [ -84.435690431449402, 33.607593502794202 ] } },
{ "type": "Feature", "properties": { "map_id": "4a8e949", "map_name": "Fixed-Guideway Lines \/ Projects", "stop_id": "5030", "stop_name": "RIVERDALE TOWN CENTER BRT STATION WB", "lines": "CLAYBRT1 Clayton Southlake BRT (Outbound)" }, "geometry": { "type": "Point", "coordinates": [ -84.416561573730306, 33.558529934032599 ] } },
{ "type": "Feature", "properties": { "map_id": "4a8e949", "map_name": "Fixed-Guideway Lines \/ Projects", "stop_id": "5028", "stop_name": "SHOPS OF RIVERDALE BRT STATION NB", "lines": "CLAYBRT1 Clayton Southlake BRT (Outbound)" }, "geometry": { "type": "Point", "coordinates": [ -84.413243006275806, 33.563291108045703 ] } },
{ "type": "Feature", "properties": { "map_id": "4a8e949", "map_name": "Fixed-Guideway Lines \/ Projects", "stop_id": "5036", "stop_name": "SOUTHERN MEDICAL CENTER BRT STATION WB", "lines": "CLAYBRT1 Clayton Southlake BRT (Outbound)" }, "geometry": { "type": "Point", "coordinates": [ -84.389050218947304, 33.578062867452999 ] } },
{ "type": "Feature", "properties": { "map_id": "4a8e949", "map_name": "Fixed-Guideway Lines \/ Projects", "stop_id": "5044", "stop_name": "SOUTHLAKE MALL BRT STATION WB", "lines": "CLAYBRT1 Clayton Southlake BRT (Outbound)" }, "geometry": { "type": "Point", "coordinates": [ -84.349696481048099, 33.573701256326501 ] } },
{ "type": "Feature", "properties": { "map_id": "4a8e949", "map_name": "Fixed-Guideway Lines \/ Projects", "stop_id": "5045", "stop_name": "SOUTHLAKE TRANSIT CENTER BRT STATION", "lines": "CLAYBRT1 Clayton Southlake BRT (Inbound & Outbound)" }, "geometry": { "type": "Point", "coordinates": [ -84.340682536877594, 33.572212969026303 ] } },
{ "type": "Feature", "properties": { "map_id": "4a8e949", "map_name": "Fixed-Guideway Lines \/ Projects", "stop_id": "5024", "stop_name": "SR 85 @ ADAMS DR BRT STATION NB", "lines": "CLAYBRT1 Clayton Southlake BRT (Outbound)" }, "geometry": { "type": "Point", "coordinates": [ -84.411172054003302, 33.582048892698701 ] } },
{ "type": "Feature", "properties": { "map_id": "4a8e949", "map_name": "Fixed-Guideway Lines \/ Projects", "stop_id": "5040", "stop_name": "US 41 @ MOUNT ZION RD BRT STATION WB", "lines": "CLAYBRT1 Clayton Southlake BRT (Outbound)" }, "geometry": { "type": "Point", "coordinates": [ -84.371517199031302, 33.573779154542898 ] } },
{ "type": "Feature", "properties": { "map_id": "4a8e949", "map_name": "Fixed-Guideway Lines \/ Projects", "stop_id": "5038", "stop_name": "US 41 @ UPPER RIVERDALE RD BRT STATION WB", "lines": "CLAYBRT1 Clayton Southlake BRT (Outbound)" }, "geometry": { "type": "Point", "coordinates": [ -84.377382731816198, 33.582874141654599 ] } }
]
}
